{
  "Events": [
    {
      "city": "Китай0",
      "day": "0000000 апреля 2022 г.",
      "latitude": 52.1311409,
      "longitude": 26.1112127,
      "name": "0000-ый этап Чемпионата РБ по дрифтингу",
      "title": "#000000000000DriftКитай22"
    },
    {
      "city": "Китай",
      "day": "0 апреля 2022 г.",
      "latitude": 52.1311409,
      "longitude": 26.1112127,
      "name": "00-ый этап Чемпионата РБ по дрифтингу",
      "title": "#DriftКитай22"
    },
    {
      "city": "Минск",
      "day": "5 апреля 2022 г.",
      "latitude": 52.1311409,
      "longitude": 26.1112127,
      "name": "0-ый этап Чемпионата РБ по дрифтингу",
      "title": "#DriftМинск22"
    },
    {
      "city": "Пинск, стадион ДОСААФ",
      "day": "10 апреля 2022 г.",
      "latitude": 52.1311409,
      "longitude": 26.1112127,
      "name": "1-ый этап Чемпионата РБ по дрифтингу",
      "title": "#DriftPinsk22"
    },
    {
      "city": "Раубичи, РЦОП Раубичи",
      "day": "8 мая 2022 г.",
      "latitude": 54.059066,
      "longitude": 27.7324008,
      "name": "2-ой этап Чемпионата РБ по дрифтингу",
      "title": "#DriftRaubichi22"
    },
    {
      "city": "Прилесье, РСТЦ ДОСААФ",
      "day": "19 июня 2022 г.",
      "latitude": 53.8194204,
      "longitude": 27.7465482,
      "name": "3-ой этап Чемпионата РБ по дрифтингу",
      "title": "#DriftZarya22"
    },
    {
      "city": "Логойск, ГСОК Логойск",
      "day": "17 июля 2022 г.",
      "latitude": 54.1816601,
      "longitude": 27.8076025,
      "name": "4-ый этап Чемпионата РБ по дрифтингу",
      "title": "#DriftLogoisk22"
    },
    {
      "city": "Прилесье, РСТЦ ДОСААФ",
      "day": "28 августа 2022 г.",
      "latitude": 53.8194204,
      "longitude": 27.7465482,
      "name": "5-ый этап Чемпионата РБ по дрифтингу",
      "title": "#ZaryaFinal22"
    },
    {
      "city": "Раубичи, РЦОП Раубичи",
      "day": "25 сентября 2022 г.",
      "latitude": 54.059066,
      "longitude": 27.7324008,
      "name": "Кубок Восточной Европы по дрифтингу 2022",
      "title": "#EEDC2022"
    }
  ]
}